city,lat,lng,max_temp,humidity,cloudiness,windspeed
New Norfolk,-42.78,147.06,66.0,72,75,8.05
Ushuaia,-54.81,-68.31,55.4,54,75,6.93
Yellowknife,62.45,-114.38,-20.0,75,75,5.82
Dingle,11.0,122.67,76.15,90,46,9.82
Puerto Ayora,-0.74,-90.35,84.2,58,75,18.34
Atuona,-9.8,-139.03,80.55,70,0,12.33
Nouakchott,18.08,-15.98,68.0,11,96,12.75
Richards Bay,-28.77,32.06,77.67,84,100,18.57
Bethel,60.79,-161.76,-16.6,68,1,9.17
Albany,42.65,-73.75,37.4,55,40,8.05
Avarua,-21.21,-159.78,78.8,88,40,4.7
Kaitangata,-46.28,169.85,57.0,55,0,18.01
Castro,-42.48,-73.76,55.4,87,90,11.41
Souillac,45.6,-0.6,42.01,93,90,3.36
Chipinge,-20.19,32.62,66.36,83,67,3.27
Gela,37.07,14.25,37.99,74,0,4.7
Butaritari,3.07,172.79,84.87,76,100,18.25
Vardo,39.62,-77.74,48.2,30,1,10.29
Kapaa,22.08,-159.32,82.4,74,75,20.8
Saldanha,41.42,-6.55,36.88,81,45,2.71
Vaini,15.34,74.49,64.33,97,4,5.06
la Garriga,41.68,2.29,52.0,93,0,2.24
Saskylakh,71.97,114.09,0.55,93,94,7.92
Mataura,-46.19,168.86,54.0,76,88,8.99
Cidreira,-30.17,-50.22,77.07,83,57,11.86
Bandarbeyla,9.49,50.81,78.85,81,16,13.6
Severobaykalsk,55.65,109.32,16.77,88,100,6.62
Bredasdorp,-34.53,20.04,64.0,72,94,3.36
Bilibino,68.06,166.44,-18.15,93,0,2.68
Banon,11.19,-1.09,73.47,25,2,8.72
Bluff,-23.58,149.07,83.55,56,60,13.71
Lata,30.78,78.62,16.23,96,100,0.83
Port Lincoln,-34.72,135.86,69.4,60,0,8.86
Rikitea,-23.12,-134.97,76.91,74,95,12.15
Great Falls,47.5,-111.29,41.0,41,40,23.04
East London,-33.02,27.91,73.35,75,100,7.52
Kharan,28.58,65.42,54.54,74,99,9.82
Santo Antonio do Ica,-3.1,-67.94,79.29,78,59,3.02
General Roca,-39.03,-67.58,78.8,26,16,13.87
Jamestown,-33.21,138.6,74.52,41,0,8.01
Norman Wells,65.28,-126.83,-38.2,65,75,3.15
Sucua,-2.46,-78.17,80.6,61,20,8.05
Ponta Delgada,37.73,-25.67,64.4,93,75,10.29
Oranjemund,-28.55,16.43,59.38,90,81,8.86
Punta Arenas,-53.16,-70.91,57.2,67,90,16.11
Gannan,47.92,123.49,9.12,91,98,12.24
Ilulissat,69.22,-51.1,-4.0,58,100,12.75
Hualmay,-11.1,-77.61,68.49,82,18,5.75
Arraial do Cabo,-22.97,-42.02,78.71,89,93,16.87
Bambanglipuro,-7.95,110.28,77.86,81,96,2.57
Cape Town,-33.93,18.42,66.99,63,99,19.46
Abong Mbang,3.98,13.18,66.6,48,35,1.88
Hobart,-42.88,147.33,66.0,72,75,8.05
Busselton,-33.64,115.35,69.01,33,0,7.34
Chokurdakh,70.62,147.9,-22.41,99,14,2.77
Banda Aceh,5.56,95.32,70.12,80,88,6.31
Invermere,50.51,-116.03,17.04,78,84,1.41
Namatanai,-3.66,152.44,85.5,71,86,6.15
Kieta,-6.22,155.63,86.2,67,39,5.82
Rocha,-34.48,-54.34,67.51,43,100,6.96
Seymchan,62.93,152.39,-20.58,100,22,1.61
Tasiilaq,65.61,-37.64,21.58,93,100,32.88
Cherskiy,68.75,161.3,-16.24,71,0,5.97
Nioro,13.79,-15.05,66.7,13,75,9.78
Dikson,73.51,80.55,12.13,95,100,10.51
Ribeira Grande,38.52,-28.7,61.52,94,97,17.6
Meadow Lake,54.13,-108.44,3.2,59,20,11.41
Provideniya,64.42,-173.23,-11.24,95,83,1.23
Winslow,51.94,-0.88,45.0,93,32,11.41
Discovery Bay,18.46,-77.4,80.6,78,40,11.41
Tiksi,71.64,128.87,-2.31,85,100,16.58
Codrington,-28.95,153.24,80.6,61,25,5.82
Portland,43.66,-70.25,27.0,73,90,5.82
Pevek,69.7,170.27,-8.93,69,0,5.19
Upernavik,72.79,-56.15,-4.34,84,100,6.71
Faanui,-16.48,-151.75,82.33,78,68,15.01
Chojnow,51.27,15.94,36.0,74,75,6.93
Mar del Plata,-46.43,-67.52,61.97,59,67,7.38
Lavrentiya,65.58,-170.99,-9.72,89,53,1.52
Ajdabiya,30.75,20.22,54.57,66,99,14.0
Liverpool,53.41,-2.98,45.0,81,40,6.93
Qaanaaq,77.48,-69.36,-13.86,62,45,10.8
Fakel,57.63,53.03,10.49,97,25,1.9
Longyearbyen,78.22,15.63,10.4,55,40,10.29
Dustlik,40.53,68.03,33.53,78,100,2.82
Tuktoyaktuk,69.44,-133.03,-29.2,66,20,8.05
Nabire,-3.36,135.5,80.19,92,74,0.94
Arusha,-3.37,36.69,65.77,87,42,1.03
Saint-Augustin,45.63,-73.98,19.0,78,75,4.7
Salalah,17.01,54.1,75.2,83,40,3.36
Ancud,-41.87,-73.83,55.4,87,90,11.41
Praia da Vitoria,38.73,-27.07,64.4,88,20,17.69
Batagay,67.65,134.64,-11.2,85,97,4.25
Geraldton,49.72,-86.95,10.4,72,75,6.93
Nha Trang,12.24,109.19,75.2,88,40,4.7
Sao Gabriel da Cachoeira,-0.13,-67.09,79.0,73,65,0.76
Clemson,34.69,-82.84,59.0,80,1,4.7
Hobyo,5.35,48.53,78.15,82,58,13.33
Fairbanks,64.84,-147.72,-18.0,65,20,1.01
Sirur,18.83,74.38,64.4,75,9,2.48
North Platte,41.12,-100.77,44.6,33,20,18.34
Matagami,9.67,8.4,64.4,39,0,4.7
Port Alfred,-33.59,26.89,69.01,97,100,9.04
Gao,16.28,-0.04,62.31,21,4,8.66
Coquimbo,-29.95,-71.34,71.6,53,0,10.29
Anloga,5.79,0.9,78.8,74,1,2.24
Manbij,36.53,37.96,42.8,93,75,13.87
Ilmajoki,62.73,22.58,35.6,100,90,11.41
Khatanga,71.98,102.47,7.12,93,99,13.02
Hermanus,-34.42,19.24,64.0,79,98,3.0
Chernyshevskiy,63.01,112.47,15.21,92,100,9.91
College,64.86,-147.8,-26.0,65,20,2.39
Lotofaga,-13.98,-171.86,91.4,66,40,16.11
Kununurra,-15.77,128.74,80.6,88,40,1.12
Pisco,-13.71,-76.2,71.6,30,1,21.92
Marsh Harbour,26.54,-77.06,69.51,57,37,8.93
Lala,7.97,123.75,72.88,89,100,3.69
Harsud,21.96,76.7,59.54,51,0,2.59
Omsukchan,62.53,155.8,-8.68,67,93,2.19
Vila Franca do Campo,37.72,-25.43,64.4,93,75,10.29
Narsaq,60.91,-46.05,-0.4,30,5,5.82
Marihatag,8.8,126.3,81.82,77,100,16.58
Hithadhoo,-0.6,73.08,83.32,76,100,11.63
Gamba,28.28,88.52,8.85,38,67,0.51
Moose Factory,51.26,-80.61,10.4,78,90,14.99
Hulan,34.23,47.18,26.6,86,0,4.7
Constitucion,23.99,-104.67,69.8,10,75,5.82
Kloulklubed,7.04,134.26,82.0,75,76,21.79
Barrow,-38.31,-60.23,59.86,62,32,7.99
Anadyr,64.73,177.51,-27.0,67,0,4.47
Saint-Pierre,48.95,4.24,42.8,100,90,13.87
Gat,14.69,-16.54,68.0,64,66,11.41
Nome,30.04,-94.42,73.4,60,40,6.93
Fairlie,33.31,-95.96,64.4,36,1,6.93
Tilichiki,60.47,166.1,3.78,94,100,7.07
Hilo,19.71,-155.08,84.2,54,75,11.41
Mitsamiouli,-11.38,43.28,82.13,80,44,7.7
Port Elizabeth,39.31,-74.98,48.2,45,1,4.7
Irbeyskoye,55.64,95.45,12.97,83,0,1.3
Carnarvon,-30.97,22.13,65.91,68,90,13.02
Shimoda,34.7,138.93,48.2,57,75,6.93
Cine,37.61,28.06,48.2,87,75,8.05
High Level,58.52,-117.13,-16.6,75,20,10.29
Saint-Philippe,45.36,-73.48,30.0,85,90,2.24
Thompson,55.74,-97.86,-2.2,84,90,10.29
Torbay,47.66,-52.73,28.0,86,90,9.17
Chuy,-33.69,-53.46,68.36,74,35,6.11
Soe,57.91,26.05,36.0,100,90,8.05
Trincomalee,8.58,81.23,73.33,95,65,2.62
Nikolskoye,59.7,30.79,35.01,96,90,11.18
Ola,59.58,151.3,3.67,70,0,5.26
Ponta do Sol,-20.63,-46.0,68.58,92,9,2.48
Pekan,3.49,103.39,75.2,88,20,13.15
Georgetown,6.8,-58.16,78.8,88,20,6.93
Pacific Grove,36.62,-121.92,64.0,63,1,11.41
Macau,-5.11,-36.64,81.39,79,64,16.04
Kavaratti,10.57,72.64,80.62,72,100,5.68
Avera,33.19,-82.53,64.4,48,1,5.82
Bonthe,7.53,-12.5,76.68,74,2,7.02
Mitu,36.2,46.09,19.09,84,0,2.89
Masuguru,-11.38,38.46,75.56,94,99,6.26
Jimo,36.39,120.46,42.01,86,90,15.66
Bayangol,48.91,106.09,-2.49,86,17,3.38
Vila,45.18,8.4,39.0,100,0,2.24
Marystown,47.17,-55.16,25.61,86,100,10.56
Mogok,22.92,96.51,50.59,98,2,2.17
Lebu,8.96,38.73,53.6,87,20,6.93
Clyde River,70.47,-68.59,-18.4,75,75,23.04
Mercedes,-33.25,-58.03,75.99,44,50,5.99
Itapirapua,-15.82,-50.61,71.83,96,84,5.57
Kupang,-10.16,123.6,80.6,88,75,11.41
Moyale,3.52,39.05,75.4,55,0,9.28
Hay River,60.82,-115.79,-13.0,75,75,10.29
Kodiak,39.95,-94.76,45.0,48,75,6.93
Muroto,33.37,134.14,46.4,87,75,9.17
Laredo,27.51,-99.51,80.6,26,1,3.09
Kruisfontein,-34.0,24.73,64.38,90,100,5.44
Akdepe,42.05,59.39,23.0,79,90,2.24
Usinsk,66.0,57.56,8.06,94,100,16.37
Hasaki,35.73,140.83,36.0,74,20,3.36
Lompoc,34.64,-120.46,73.99,26,1,3.36
Vao,59.1,26.19,36.48,97,100,7.56
Pitogo,13.79,122.09,79.12,81,90,16.91
Challans,46.85,-1.88,51.8,100,90,8.05
Kalanguy,51.01,116.52,-1.86,85,3,2.62
Cap Malheureux,-19.98,57.61,77.0,100,75,3.27
Necochea,-38.55,-58.74,64.99,65,0,13.0
Zschopau,50.75,13.07,36.0,78,0,9.17
Shaoguan,24.81,113.59,63.12,87,62,1.03
Nanortalik,60.14,-45.24,14.54,71,0,52.1
Lagoa,37.14,-8.45,53.01,87,0,5.82
Valdivia,-39.81,-73.25,60.8,63,40,8.05
Trud,42.23,24.73,30.2,79,20,6.93
Severo-Kurilsk,50.68,156.12,24.57,74,100,16.67
Mnogovershinnyy,53.94,139.92,6.22,71,10,5.86
Broken Hill,-31.97,141.45,71.6,53,0,14.99
Urubicha,-15.63,-63.08,75.4,90,100,4.34
Ramona,33.04,-116.87,82.4,10,1,13.87
Berdigestyakh,62.1,126.7,13.68,95,100,5.79
Isangel,-19.55,169.27,86.0,70,75,11.41
Daru,-9.07,143.21,84.97,75,97,3.33
Hovd,63.83,10.7,46.4,61,36,8.05
Parana,-7.52,-72.89,78.73,73,29,2.3
Saint George,39.45,22.34,37.4,55,20,5.82
Moree,-29.46,149.84,82.4,45,73,21.92
Elban,50.1,136.51,-9.29,98,43,2.62
Talnakh,69.49,88.39,12.2,92,40,17.9
Changli,30.54,105.42,42.87,81,17,2.04
Dhidhdhoo,6.88,73.1,81.41,80,86,10.85
Half Moon Bay,37.46,-122.43,62.6,47,1,9.17
Airai,-8.93,125.41,76.66,63,99,3.31
Morgan City,29.7,-91.21,72.0,56,20,10.29
Baijiantan,45.63,85.18,8.47,90,19,1.77
Adrar,27.87,-0.29,48.2,29,39,13.87
Ati,13.21,18.34,68.2,20,0,9.69
Mungaoli,24.41,78.09,54.14,53,28,8.21
Pulaski,37.05,-80.78,51.8,35,1,1.97
Cayenne,4.94,-52.33,78.8,78,55,3.36
Batemans Bay,-35.71,150.18,72.0,71,52,4.0
Woodstock,43.13,-80.75,36.0,55,20,11.41
Honningsvag,70.98,25.97,32.0,79,75,12.75
Matara,-3.48,29.48,56.77,88,95,3.58
North Bay,46.31,-79.46,26.01,85,90,17.22
Kalmunai,7.42,81.82,81.77,76,40,14.25
La Ronge,55.1,-105.3,-4.0,70,75,23.04
San Policarpo,12.18,125.51,80.01,84,62,14.45
Yeppoon,-23.13,150.74,82.4,65,75,8.05
Ketchikan,55.34,-131.65,35.6,94,75,5.82
Rudkobing,54.94,10.71,39.11,85,85,14.32
Vila Velha,-3.71,-38.6,86.0,74,20,6.93
Mehamn,71.03,27.85,32.0,86,40,11.41
Yatou,3.63,9.81,80.6,88,20,2.59
Benxi,41.29,123.76,21.2,62,90,13.42
Zhezkazgan,47.8,67.71,8.04,99,88,2.98
Komsomolskiy,67.55,63.78,10.67,92,100,18.52
Merritt,50.11,-120.79,33.8,97,90,4.7
Yenagoa,4.92,6.26,77.25,72,100,2.37
Lerum,57.77,12.27,44.01,87,100,11.41
Mount Isa,-20.73,139.49,87.8,52,100,9.17
Nazca,-14.83,-74.94,69.87,78,47,7.56
Boulder City,35.98,-114.83,59.0,20,1,5.82
Hun,50.34,4.87,41.0,86,75,14.99
Opuwo,-18.06,13.84,66.06,62,1,7.4
Sao Filipe,14.9,-24.5,69.46,62,90,19.75
Bacolod,10.68,122.95,77.4,75,75,3.15
Baracoa,20.35,-74.5,76.19,85,94,18.37
Mahebourg,-20.41,57.7,77.0,100,75,1.7
Ippy,6.26,21.2,72.39,34,93,5.12
Bambous Virieux,-20.34,57.76,77.0,100,75,6.35
Sibolga,1.74,98.78,69.93,92,73,3.51
Arman,59.7,150.17,13.68,84,58,6.51
Esperance,-33.86,121.89,69.8,37,0,9.17
Yar-Sale,66.83,70.83,6.84,84,18,15.61
Fort Nelson,58.81,-122.69,-20.2,75,20,1.36
Shizunai,42.33,142.37,25.41,61,87,2.57
Marzuq,14.4,46.47,59.05,66,0,3.44
Pilar,-34.46,-58.91,77.0,38,0,18.34
Caraballeda,10.61,-66.85,82.4,74,75,4.7
Saurimo,-9.66,20.4,67.05,94,100,2.17
Makaleng,-20.8,27.27,75.96,37,94,10.63
Mangai,-4.07,19.59,73.83,74,100,1.01
Los Llanos de Aridane,28.66,-17.92,64.4,59,20,13.87
Winnemucca,40.97,-117.74,50.0,31,1,3.36
Marathon,48.72,-86.38,12.2,78,40,4.7
Labuhan,-2.54,115.51,75.9,92,100,1.34
Elk Plain,47.04,-122.37,51.01,100,90,9.17
Waipawa,-39.94,176.59,66.4,34,36,12.5
Tupancireta,-29.08,-53.84,69.93,73,91,5.53
Hambantota,6.12,81.12,75.2,100,31,8.05
Christchurch,-43.53,172.64,64.99,55,54,27.51
San Quintin,17.54,120.52,72.01,76,2,4.12
Aitape,-3.15,142.36,81.21,78,100,3.15
Adre,13.47,22.2,63.43,28,50,8.3
Teya,21.05,-89.07,78.8,50,75,9.17
Palin,46.5,16.98,26.6,79,0,4.7
Olinda,-37.84,145.39,64.99,93,90,5.82
Nizip,37.01,37.79,42.8,93,75,13.87
Chapais,49.78,-74.86,8.6,84,90,6.93
Kalat,29.03,66.58,35.74,92,88,1.77
Luderitz,-26.65,15.16,68.0,64,100,14.99
Khandyga,62.65,135.58,-0.83,95,100,4.7
Victoria,5.28,115.24,80.6,83,75,3.36
Moron,18.56,-74.26,76.64,73,0,14.27
Collie,-33.36,116.15,69.01,33,0,6.87
Saint-Francois,46.42,3.91,37.99,92,49,3.69
Hvide Sande,56.01,8.13,43.0,86,100,9.17
Honiara,-9.43,159.96,87.8,74,20,11.41
Oyon,-10.67,-76.77,41.74,91,100,5.01
Dong Hoi,17.48,106.6,69.69,94,85,0.94
Kaniama,-7.57,24.18,66.69,99,100,1.7
Bud,62.91,6.91,46.4,61,100,14.99
Howard Springs,-12.5,131.05,79.0,94,75,1.12
Coari,-4.09,-63.14,82.15,67,24,2.68
Nosy Varika,-20.58,48.53,74.88,92,90,4.34
Kaputa,-8.47,29.66,65.08,94,99,1.99
Puerto Narino,-3.77,-70.38,91.4,55,20,4.7
Jelgava,56.65,23.73,37.4,100,90,6.93
Monrovia,6.33,-10.8,73.4,94,20,7.07
Klaksvik,62.23,-6.59,42.8,70,23,21.92
Butembo,0.12,29.29,61.5,87,100,3.62
Warmbad,50.67,13.08,36.0,100,0,6.29
Zhigansk,66.77,123.37,-1.34,95,100,16.15
Taoudenni,22.68,-3.98,53.37,17,43,7.2
Gornopravdinsk,60.06,69.92,8.24,97,97,5.88
Qaqortoq,60.72,-46.03,-0.4,30,5,5.82
Winona,43.21,-79.65,37.4,74,20,17.22
Port Blair,11.67,92.75,78.8,83,20,2.24
Zapolyarnyy,69.43,30.82,15.8,92,75,13.87
Fleetwood,49.16,-122.8,45.0,100,90,6.93
Sisimiut,66.94,-53.67,-19.89,74,27,11.16
Columbia,34.0,-81.03,60.8,41,1,3.36
La Rioja,-29.41,-66.86,70.57,34,0,3.91
Quartz Hill,34.65,-118.22,77.0,26,1,9.17
Grindavik,63.84,-22.43,33.8,80,40,11.41
Kahului,20.89,-156.47,82.4,51,20,23.04
Torquay,50.47,-3.52,46.0,93,57,4.7
Punto Fijo,11.69,-70.21,79.84,78,1,11.21
Pochutla,15.74,-96.47,91.4,49,20,9.17
Pozo Colorado,-23.49,-58.8,72.81,88,84,12.17
Japura,-0.42,102.29,73.78,90,28,1.59
Harper,30.3,-99.24,77.0,39,1,5.82
Raudeberg,61.99,5.14,46.4,87,75,31.09
Lima,-12.06,-77.04,73.4,83,40,14.99
Karratha,-20.74,116.85,85.87,71,100,6.42
Touros,-5.2,-35.46,80.6,78,20,11.41
Gonzalez,-42.79,-65.06,60.19,43,11,13.78
Boquete,8.78,-82.43,87.8,55,20,8.05
Sorland,67.67,12.69,44.49,84,100,30.51
Shalya,57.25,58.73,11.48,97,75,0.65
Burnie,-41.05,145.91,68.0,71,92,5.99
Ostrovnoy,68.05,39.51,9.55,96,70,5.55
Bonavista,48.65,-53.11,25.74,74,100,10.65
Kikwit,-5.04,18.82,73.76,80,100,0.92
Port Hedland,-20.31,118.58,86.0,51,90,9.17
Yarim,14.3,44.38,53.28,56,0,3.85
Santa Lucia,41.98,12.66,43.0,55,0,3.36
Yarega,63.43,53.58,9.97,89,93,7.92
Miranda,-20.24,-56.38,87.53,54,94,5.93
Port Keats,-14.25,129.55,85.32,73,99,6.82
Faya,18.39,42.45,57.2,71,0,6.93
Petropavlovsk-Kamchatskiy,53.05,158.65,26.6,49,100,11.18
Amalapuram,16.58,82.0,69.31,96,52,4.0
Fortuna,40.6,-124.16,55.0,62,1,5.82
Warrnambool,-38.38,142.48,61.0,94,0,7.36
Tuatapere,-46.13,167.69,54.0,76,98,8.99
Turukhansk,65.8,87.96,18.73,95,100,8.99
Madang,35.32,102.79,15.96,76,30,1.9
Presidencia Roque Saenz Pena,-26.79,-60.44,80.46,52,73,11.27
Meulaboh,4.14,96.13,80.53,80,79,8.08
Tynda,55.15,124.74,-16.71,97,2,1.68
Sampit,-2.54,112.95,78.55,90,70,1.61
San Andres,13.32,122.68,77.77,83,26,10.13
Kilindoni,-7.91,39.67,82.54,79,0,11.7
Poli,8.48,13.24,71.8,27,0,4.79
Biak,-0.91,122.88,80.69,77,100,8.57
Villa Bruzual,9.33,-69.12,78.8,64,26,5.86
Altamira,-3.2,-52.21,76.53,92,99,0.85
Addanki,15.81,79.97,69.35,96,90,3.38
Cabedelo,-6.97,-34.84,80.6,83,20,9.17
Kijang,35.24,129.21,46.4,93,90,3.36
Vestmannaeyjar,63.44,-20.27,41.34,67,85,25.17
Ha Tinh,18.33,105.9,69.48,90,4,5.41
Koslan,63.46,48.9,10.9,94,100,7.34
Acapulco,16.86,-99.88,86.0,62,5,5.82
Henties Bay,-22.12,14.28,63.0,89,29,1.01
Amazar,53.86,120.88,-12.5,94,0,1.59
Mamallapuram,12.63,80.17,80.01,88,40,8.05
Basco,40.33,-91.2,42.8,51,1,4.7
Mandalgovi,45.76,106.27,3.61,75,0,3.38
Challapata,-18.9,-66.78,55.71,41,17,7.29
Sur,22.57,59.53,70.23,84,0,9.15
Guerrero Negro,27.97,-114.04,72.43,28,0,3.98
Reconquista,-29.14,-59.64,73.51,72,70,7.94
Gaurnadi,22.97,90.23,55.92,62,0,4.27
Sari,36.57,53.06,39.2,93,0,2.24
Skagen,58.6,13.44,44.6,93,100,10.29
Dawlatabad,36.41,64.91,38.14,76,87,3.74
Kitab,39.12,66.88,30.2,80,75,4.7
Dunedin,-45.87,170.5,52.05,70,20,23.24
Great Bend,38.36,-98.78,50.0,27,1,20.8
Jacareacanga,-6.22,-57.76,80.46,67,88,2.77
Ikongo,-21.88,47.44,70.21,97,84,1.54
Lasa,34.92,32.53,60.8,76,75,18.34
Kutum,14.2,24.66,58.77,29,30,4.03
Bengbu,32.92,117.38,44.01,97,100,6.38
Zaysan,47.47,84.87,0.0,73,0,0.98
Jaguey Grande,22.53,-81.13,71.6,60,75,9.17
Conceicao do Araguaia,-8.26,-49.26,71.15,95,100,2.3
Ossora,59.24,163.07,9.0,94,90,5.17
Hamilton,43.26,-79.87,37.4,74,20,17.22
Gornyak,51.0,81.46,8.47,82,100,1.77
Sume,43.62,20.22,23.0,100,75,1.12
Yulara,-25.24,130.99,77.0,61,100,11.41
Savannah Bight,16.45,-85.85,78.8,77,88,17.49
Cananeia,-25.01,-47.93,73.33,93,7,2.21
Maraa,-1.83,-65.37,80.37,80,80,0.49
Springdale,36.19,-94.13,55.4,37,1,12.75
Shenjiamen,29.96,122.3,61.84,93,55,23.09
Te Anau,-45.41,167.72,47.44,89,96,5.39
Sekoma,-24.51,23.93,71.02,69,100,4.85
Baherden,38.44,57.43,35.17,81,62,3.44
Baykit,61.68,96.39,3.22,97,79,3.24
Ust-Kuyga,70.0,135.55,-23.22,94,0,7.78
Umm Lajj,25.02,37.27,53.62,66,0,5.48
Artyom,43.36,132.19,17.6,78,75,4.47
Kargopol,61.51,38.95,22.84,94,100,6.85
Mangaldai,26.43,92.03,54.09,83,72,6.67
Rio Cuarto,-33.13,-64.35,73.4,40,0,3.36
Nemuro,43.32,145.57,29.89,72,10,21.74
Mende,44.52,3.5,31.3,95,46,2.64
Verkhnevilyuysk,63.45,120.31,16.7,94,100,7.61
Santa Cruz,-6.22,-36.02,75.06,81,86,5.28
Kedrovyy,56.17,91.82,12.2,85,0,4.97
Gwadar,25.12,62.33,74.71,70,17,12.82
Bellevue,50.05,10.19,30.99,100,1,3.36
Poya,-21.35,165.16,75.92,82,41,17.11
Comodoro Rivadavia,-45.87,-67.48,62.6,55,44,13.87
Rorvik,64.86,11.24,45.0,81,96,1.99
Aswan,24.09,32.9,46.31,49,0,4.43
San Cristobal,14.68,-86.92,63.18,91,79,5.88
Srikakulam,18.29,83.89,61.81,83,0,3.87
Vaitape,-16.52,-151.75,82.33,78,68,15.01
Mahemdavad,22.82,72.75,68.0,64,40,3.36
Mackay,53.65,-115.58,23.0,73,20,2.24
Kaeng Khoi,14.59,101.0,77.0,87,0,1.81
Mandera,3.94,41.86,86.31,46,39,13.78
Khunti,23.08,85.28,53.26,54,0,3.18
Denpasar,-8.65,115.22,82.4,88,40,9.17
Port Macquarie,-31.43,152.91,87.01,65,58,8.05
Miri,10.31,9.75,65.07,35,0,6.15
Ixtapa,20.71,-105.21,79.0,57,40,8.05
Darhan,49.49,105.92,-3.8,88,22,4.34
Ceyhan,37.03,35.82,50.0,81,75,10.29
Yekaterinovka,46.69,38.75,35.92,89,100,7.65
Troitsko-Pechorsk,62.71,56.19,5.29,92,72,6.42
Beyneu,45.32,55.19,25.39,78,11,1.5
Tezu,27.93,96.16,49.08,66,90,2.64
Khudaganj,28.19,79.75,56.68,60,100,3.56
Bismarck,46.81,-100.78,33.8,86,90,24.16
Birjand,32.86,59.22,26.6,92,0,4.7
Weyburn,49.67,-103.85,27.0,72,32,18.99
Nikolsk,59.53,45.45,15.04,96,100,6.82
Hirara,24.8,125.28,69.8,77,40,10.29
Utiel,39.57,-1.21,46.0,93,0,3.36
Conde,-11.81,-37.61,81.0,80,61,16.49
Newcastle,-32.93,151.78,75.2,83,75,4.7
Mirnyy,56.57,36.46,24.93,86,94,7.36
Kavieng,-2.57,150.8,84.72,69,75,2.89
Pine Bluff,34.23,-92.0,57.2,54,1,9.17
Merauke,-8.49,140.4,84.4,74,92,6.53
Kholodnyy,62.72,147.95,-25.73,100,0,2.62
Sungairaya,0.7,108.9,76.59,87,94,2.91
Tura,64.27,100.22,9.12,88,100,5.66
Rawson,-43.3,-65.11,58.68,63,1,12.62
Yerbogachen,61.28,108.01,15.69,92,100,10.45
Hammerfest,70.66,23.68,35.6,80,90,12.75
Kalianget,-7.35,109.91,77.0,94,40,3.36
Iwanai,42.97,140.51,28.2,85,99,3.29
Ritchie,-29.03,24.6,73.4,49,99,4.7
Katsuura,33.93,134.5,44.6,75,75,4.7
San Juan,-31.54,-68.53,82.04,17,0,10.56
Wasilla,61.58,-149.44,1.0,75,1,1.03
Wahpeton,46.27,-96.61,27.0,73,45,8.05
Ngunguru,-35.62,174.5,69.01,60,81,8.01
Bollnas,61.35,16.39,39.0,98,98,1.01
Keflavik,64.0,-22.56,33.8,80,40,11.41
Nalut,31.86,10.98,48.85,71,50,6.6
Nuuk,64.17,-51.74,-0.4,84,90,5.82
Okhotsk,59.36,143.24,-8.61,78,1,13.15
Bereda,43.27,-7.54,46.0,100,20,5.82
Dudinka,69.41,86.18,12.2,92,40,17.9
Ardalstangen,61.24,7.7,27.82,95,100,8.23
Kantang,7.42,99.52,69.37,95,8,1.97
Paamiut,61.99,-49.67,-0.47,78,46,15.28
Nara,34.68,135.8,46.4,75,75,4.7
Bamiantong,44.93,130.53,11.62,95,99,2.3
Upington,-28.46,21.24,78.8,29,67,3.36
Bulawayo,-20.16,28.59,69.84,44,99,7.05
Tabou,4.42,-7.36,71.53,70,0,2.8
Ambon,47.55,-2.56,52.0,100,90,5.82
Abu Dhabi,24.47,54.37,68.0,56,20,8.05
Sorokino,51.22,37.86,20.71,93,0,5.12
Halifax,44.65,-63.58,24.01,79,90,4.7
Camapua,-19.53,-54.04,75.0,88,85,2.89
Saky,45.13,33.6,36.7,83,97,25.12
Puro,13.13,123.76,77.45,88,86,13.91
Buraydah,26.33,43.97,53.6,46,40,6.93
Tutoia,-2.76,-42.27,76.89,89,93,4.92
Lorengau,-2.02,147.27,84.29,75,74,9.44
Mayya,61.74,130.28,-18.4,75,40,2.24
Banki,45.22,13.8,37.99,92,0,6.93
Nelson Bay,-32.72,152.14,75.99,83,75,4.7
Sainte-Suzanne,47.51,6.77,37.99,74,0,2.24
Kaura Namoda,12.59,6.58,67.51,28,52,10.8
Jalu,29.03,21.55,48.36,69,1,16.42
Sinnamary,5.38,-52.96,79.3,77,85,15.57
Sungaipenuh,-2.08,101.38,61.75,97,55,2.66
Zhanakorgan,43.91,67.25,24.46,81,46,8.34
Yingkou,40.67,122.24,21.9,77,100,21.5
Oktyabrskiy,55.61,37.97,30.2,68,75,4.47
Carutapera,-1.2,-46.02,81.36,80,100,14.47
Cheremshan,54.66,51.51,21.79,95,100,3.13
Beringovskiy,63.05,179.32,-11.24,86,9,11.25
Aguimes,27.91,-15.45,64.99,68,75,23.04
Constantine,36.36,6.61,39.2,86,0,2.24
Namibe,-15.19,12.15,71.53,85,99,8.39
Hit,33.64,42.83,53.17,60,0,6.89
Port Hardy,50.7,-127.42,41.0,86,75,12.75
Preston,53.76,-2.71,45.0,81,40,6.93
Aksarka,66.56,67.8,6.76,83,14,14.88
Luganville,-15.51,167.18,84.2,79,75,10.29
Beliu,46.49,21.99,24.8,92,0,1.12
Wanaka,-44.7,169.14,51.49,55,74,5.95
Ampanihy,-24.69,44.75,76.95,72,81,3.67
Westport,41.14,-73.36,45.0,52,40,8.05
Russell,38.9,-98.86,50.0,25,1,20.8
Usman,52.05,39.74,28.4,68,75,4.47
Juneau,58.3,-134.42,32.0,86,90,10.29
Aste,45.79,11.1,37.0,86,0,3.36
Altay,47.83,88.13,8.82,50,4,4.63
Padang,-0.92,100.36,69.21,88,91,4.97
Alofi,-19.06,-169.92,84.2,79,75,4.7
Whitehorse,60.72,-135.06,-9.0,76,90,2.24
Liuli,-11.1,34.65,81.07,69,80,8.88
Saint-Joseph,43.56,6.97,50.0,93,75,2.24
Garissa,-0.46,39.64,77.72,78,46,7.67
Coihaique,-45.58,-72.07,55.4,71,90,2.24
Lae,-6.72,146.98,77.0,88,75,9.17
Cabo San Lucas,22.89,-109.91,80.01,47,5,3.36
Nouadhibou,20.93,-17.03,62.6,63,100,18.34
Jalingo,10.3,10.93,68.02,33,0,12.86
Sept-Iles,50.2,-66.38,3.99,59,20,8.05
Visby,57.64,18.3,44.01,93,94,11.41
Phan Thiet,10.93,108.1,71.64,76,78,2.68
Amarwara,22.3,79.17,54.59,53,0,5.68
Eureka,40.8,-124.16,55.0,58,1,4.7
Makokou,0.56,12.85,72.05,76,9,1.63
Tarko-Sale,64.92,77.78,5.65,93,96,10.89
Afrikanda,67.44,32.78,10.78,96,14,2.46
Tiznit,29.7,-9.73,49.71,56,0,3.42
